[
{"id" : 0 , "name" : "三顧茅蘆" , "event_ids" : [0 , 1 , 2] , "element_ids" : [0 , 1] , "desc" : "諸葛亮在隆中躬耕，自比管仲樂毅。劉備求賢若渴，得司馬徽、徐庶推薦，三顧茅廬，終於見到諸葛亮。諸葛亮分析天下大勢，定下三分天下之計。" , "time" : "建安十二年" , "ad" : "207年" , "center" : {"lat" : 32.010 , "lng" : 111.939} ,"pic" : "G" , "images" : [] },
{"id" : 1 , "name" : "曹操南征" , "event_ids" : [3 , 4] , "element_ids" : [2 , 3 , 4] , "desc" : "曹操北征烏桓後，統一北方後，自任丞相，操兵鄴城，於建安十三年七月，親征荊州。劉表在八月間病逝後，繼位荊州的劉琮投降曹操。" , "time" : "建安十三年七月" , "ad" : "208年" , "center" : {"lat" : 33.967 , "lng" : 113.456} ,"pic" : "B" , "images" : ["http://laiba.tianya.cn/laiba/images/274/12295006300625014141/A/1/o.png", "http://laiba.tianya.cn/laiba/images/274/12295006300625014142/A/1/o.png"] },
{"id" : 2 , "name" : "長阪之戰" , "event_ids" : [6 , 7 , 8 , 9 , 10 , 11 , 13] , "element_ids" : [5 , 6 , 7 , 8 , 9 , 10 , 11 , 12 , 13 , 14] , "desc" : "劉備棄樊城而逃，攜民渡江，被曹操輕騎趕上，在長阪激戰。劉備大敗，在漢津同關羽的水軍匯合，奔逃至夏口。" , "time" : "建安十三年九月" , "ad" : "208年" , "center" : {"lat" : 31.569 , "lng" : 112.901} ,"pic" : "GB" , "images" : ["http://laiba.tianya.cn/laiba/images/274/12295006300625014143/A/1/o.png", "http://laiba.tianya.cn/laiba/images/274/12295006300625014144/A/1/o.png"] },
{"id" : 3 , "name" : "魯肅尋訪劉備" , "event_ids" : [5 , 12] , "element_ids" : [15 , 16 , 17 , 18 , 19] , "desc" : "魯肅向孫權建議聯合劉備共抗曹操，並親赴荊州，在當陽會見劉備。劉備聽其建議，轉走夏口，遣諸葛亮出使東吳。" , "time" : "建安十三年八月" , "ad" : "208年" , "center" : {"lat" : 30.714 , "lng" : 113.833} ,"pic" : "GR" , "images" : ["http://laiba.tianya.cn/laiba/images/274/12295006300625014145/A/1/o.png", "http://laiba.tianya.cn/laiba/images/274/12295006540671903369/A/1/o.png"] },
{"id" : 4 , "name" : "諸葛亮出使江東" , "event_ids" : [14 , 15 , 16 , 17 , 18] , "element_ids" : [20 , 21 , 22 , 23 , 24] , "desc" : "諸葛亮出使東吳，舌戰群儒，勸說孫權。孫吳群臣大多主降，唯有魯肅周瑜主張迎戰，並說服孫權，全力抗曹。" , "time" : "建安十三年九月" , "ad" : "208年" , "center" : {"lat" : 30.546 , "lng" : 114.463} ,"pic" : "GR" , "images" : ["http://laiba.tianya.cn/laiba/images/274/12295006550671903370/A/1/o.png", "http://laiba.tianya.cn/laiba/images/274/12295006550671903371/A/1/o.png", "http://laiba.tianya.cn/laiba/images/274/12295006550671903372/A/1/o.png"] },
{"id" : 5 , "name" : "赤壁之戰" , "event_ids" : [19 , 20 , 21 , 22 , 23] , "element_ids" : [25 , 26 , 27 , 28 , 29 , 30] , "desc" : "孫劉聯軍與曹操軍在赤壁對峙，黃蓋向周瑜獻火攻之計，詐降曹操，駕蒙衝鬥艦十艘，趁東南風起，燒盡曹操軍艦。曹操從華容道脫逃，損失慘重。" , "time" : "建安十三年十月" , "ad" : "208年" , "center" : {"lat" : 30.127 , "lng" : 114.233} ,"pic" : "RGB" , "images" : ["http://laiba.tianya.cn/laiba/images/274/12295006550671903373/A/1/o.png", "http://laiba.tianya.cn/laiba/images/274/12295006751670661210/A/1/o.png", "http://laiba.tianya.cn/laiba/images/274/12295006931670661211/A/1/o.png", "http://laiba.tianya.cn/laiba/images/274/12295007161670661212/A/1/o.png", "http://laiba.tianya.cn/laiba/images/274/12295007261670661214/A/1/o.png"] },
{"id" : 6 , "name" : "南郡之戰" , "event_ids" : [24 , 25 , 26 , 32] , "element_ids" : [31 , 32 , 33 , 34 , 35 , 36 , 37 , 38 , 39] , "desc" : "赤壁敗後，曹操留曹仁徐晃守南郡，樂進守襄陽。周瑜程普圍攻江陵，甘寧呂蒙則奪取了夷陵。鏖戰一年後，曹仁退走，周瑜佔領南郡，領南郡太守。" , "time" : "建安十三年十月" , "ad" : "208年" , "center" : {"lat" : 30.823 , "lng" : 112.326} ,"pic" : "RB" , "images" : [] },
{"id" : 7 , "name" : "荊南略地" , "event_ids" : [30 , 31] , "element_ids" : [43 , 44 , 45 , 46 , 47 , 48 , 49] , "desc" : "劉備表劉琦為荊州刺史，引兵征服武陵、長沙、桂陽、零陵四郡，任諸葛亮為軍師中郎將，督零陵、桂陽、長沙三郡，趙雲領桂陽太守。" , "time" : "建安十三年十二月" , "ad" : "208年" , "center" : {"lat" : 28.673 , "lng" : 112.405} ,"pic" : "G" , "images" : [] },
{"id" : 8 , "name" : "合肥之戰" , "event_ids" : [27 , 28 , 29] , "element_ids" : [40 , 41 , 42] , "desc" : "孫權親自領軍圍攻合肥，並遣張昭攻擊當塗，然因曹軍偽報，無功而返。" , "time" : "建安十三年十二月" , "ad" : "208年" , "center" : {"lat" : 31.131 , "lng" : 117.607} ,"pic" : "RB" , "images" : [] },
{"id" : 9 , "name" : "蔣乾說周瑜" , "event_ids" : [33] , "element_ids" : [54] , "desc" : "曹操欣賞周瑜才華，遣蔣幹遊說周瑜，周瑜看破蔣幹來意，表示自己已遇明君，不會投奔曹操。" , "time" : "建安十四年" , "ad" : "209年" , "center" : {"lat" : 30.348 , "lng" : 112.197} ,"pic" : "RB" , "images" : [] },
{"id" : 10 , "name" : "劉備借荊州" , "event_ids" : [34 , 35 , 38] , "element_ids" : [50 , 51 , 52 , 53] , "desc" : "劉備自封荊州牧，往京口向孫權借荊州土地，周瑜建議孫權扣留劉備未果。周瑜死後，魯肅借荊州給劉備，聯合抗曹。" , "time" : "建安十四年" , "ad" : "209年" , "center" : {"lat" : 30.204 , "lng" : 113.005} ,"pic" : "GR" , "images" : [] },
{"id" : 11 , "name" : "周瑜逝世" , "event_ids" : [36 , 37] , "element_ids" : [55 , 56] , "desc" : "周瑜定下西取益州、漢中的戰略，以對抗曹操，卻出師未捷，染病去世。" , "time" : "建安十五年" , "ad" : "210年" , "center" : {"lat" : 31.201 , "lng" : 118.747} ,"pic" : "R" , "images" : [] }
]
